{
  "清华大学": {
    "name": "清华大学",
    "type": "university",
    "phone": "010-62793001",
    "website": "https://www.tsinghua.edu.cn",
    "location": {
      "city": "北京市",
      "address": "北京市海淀区清华园1号"
    },
    "president": "王希勤",
    "founding_date": "1911年",
    "motto": "自强不息，厚德载物",
    "student_count": 36159,
    "area": "4.42平方公里",
    "library_volume": "约700万册",
    "academician_count": 167,
    "short_name": "清华",
    "party_secretary": "王希勤",
    "anniversary_date": "4月24日",
    "predecessor": "清华学堂",
    "nearest_metro": "清华东路西口站"
  },
  "北京大学": {
    "name": "北京大学",
    "type": "university",
    "phone": "010-62751201",
    "website": "https://www.pku.edu.cn",
    "location": {
      "city": "北京市",
      "address": "北京市海淀区颐和园路5号"
    },
    "president": "龚旗煌",
    "founding_date": "1898年",
    "motto": "爱国、进步、民主、科学",
    "student_count": 41005,
    "area": "2.7平方公里",
    "library_volume": "约1150万册",
    "academician_count": 184,
    "short_name": "北大",
    "party_secretary": "邱水平",
    "anniversary_date": "5月4日",
    "predecessor": "京师大学堂",
    "nearest_metro": "北京大学东门站"
  },
  "中国科学技术大学": {
    "name": "中国科学技术大学",
    "type": "university",
    "phone": "0551-63602184",
    "website": "https://www.ustc.edu.cn",
    "location": {
      "city": "合肥市",
      "address": "安徽省合肥市金寨路96号"
    },
    "president": "包信和",
    "founding_date": "1958年",
    "motto": "红专并进，理实交融",
    "student_count": 16000,
    "area": "1.46平方公里",
    "library_volume": "约450万册",
    "academician_count": 65,
    "short_name": "中科大",
    "party_secretary": "舒歌群",
    "anniversary_date": "9月20日",
    "predecessor": "无",
    "nearest_metro": "大学城站"
  },
  "复旦大学": {
    "name": "复旦大学",
    "type": "university",
    "phone": "021-65642222",
    "website": "https://www.fudan.edu.cn",
    "location": {
      "city": "上海市",
      "address": "上海市杨浦区邯郸路220号"
    },
    "president": "金力",
    "founding_date": "1905年",
    "motto": "博学而笃志，切问而近思",
    "student_count": 36000,
    "area": "2.47平方公里",
    "library_volume": "约500万册",
    "academician_count": 52,
    "short_name": "复旦",
    "party_secretary": "焦扬",
    "anniversary_date": "5月27日",
    "predecessor": "复旦公学",
    "nearest_metro": "邯郸路站"
  },
  "武汉大学": {
    "name": "武汉大学",
    "type": "university",
    "phone": "027-68754231",
    "website": "https://www.whu.edu.cn",
    "location": {
      "city": "武汉市",
      "address": "湖北省武汉市武昌区珞珈山"
    },
    "president": "窦贤康",
    "founding_date": "1893年",
    "motto": "自强、弘毅、求是、拓新",
    "student_count": 50000,
    "area": "2.42平方公里",
    "library_volume": "约570万册",
    "academician_count": 34,
    "short_name": "武大",
    "party_secretary": "韩进",
    "anniversary_date": "11月29日",
    "predecessor": "自强学堂",
    "nearest_metro": "珞雄路站"
  },
  "浙江大学": {
    "name": "浙江大学",
    "type": "university",
    "phone": "0571-87951111",
    "website": "https://www.zju.edu.cn",
    "location": {
      "city": "杭州市",
      "address": "浙江省杭州市西湖区余杭塘路866号"
    },
    "president": "吴朝晖",
    "founding_date": "1897年",
    "motto": "求是创新",
    "student_count": 54641,
    "area": "4.5平方公里",
    "library_volume": "约700万册",
    "academician_count": 51,
    "short_name": "浙大",
    "party_secretary": "任少波",
    "anniversary_date": "5月21日",
    "predecessor": "求是书院",
    "nearest_metro": "紫金港站"
  },
  "上海交通大学": {
    "name": "上海交通大学",
    "type": "university",
    "phone": "021-34200000",
    "website": "https://www.sjtu.edu.cn",
    "location": {
      "city": "上海市",
      "address": "上海市闵行区东川路800号"
    },
    "president": "林忠钦",
    "founding_date": "1896年",
    "motto": "饮水思源，爱国荣校",
    "student_count": 41000,
    "area": "4.16平方公里",
    "library_volume": "约430万册",
    "academician_count": 40,
    "short_name": "上交大",
    "party_secretary": "姜斯宪",
    "anniversary_date": "4月8日",
    "predecessor": "南洋公学",
    "nearest_metro": "交通大学站"
  },
  "南京大学": {
    "name": "南京大学",
    "type": "university",
    "phone": "025-83592000",
    "website": "https://www.nju.edu.cn",
    "location": {
      "city": "南京市",
      "address": "江苏省南京市栖霞区仙林大道163号"
    },
    "president": "吕建",
    "founding_date": "1902年",
    "motto": "诚朴雄伟，励学敦行",
    "student_count": 33000,
    "area": "5.19平方公里",
    "library_volume": "约480万册",
    "academician_count": 31,
    "short_name": "南大",
    "party_secretary": "胡金波",
    "anniversary_date": "5月20日",
    "predecessor": "三江师范学堂",
    "nearest_metro": "南京大学仙林校区站"
  },
  "哈尔滨工业大学": {
    "name": "哈尔滨工业大学",
    "type": "university",
    "phone": "0451-86412114",
    "website": "https://www.hit.edu.cn",
    "location": {
      "city": "哈尔滨市",
      "address": "黑龙江省哈尔滨市南岗区西大直街92号"
    },
    "president": "周玉",
    "founding_date": "1920年",
    "motto": "规格严格，功夫到家",
    "student_count": 42000,
    "area": "4.7平方公里",
    "library_volume": "约400万册",
    "academician_count": 33,
    "short_name": "哈工大",
    "party_secretary": "熊四皓",
    "anniversary_date": "6月7日",
    "predecessor": "哈尔滨中俄工业学校",
    "nearest_metro": "哈工大站"
  },
  "西安交通大学": {
    "name": "西安交通大学",
    "type": "university",
    "phone": "029-82668899",
    "website": "http://www.xjtu.edu.cn",
    "location": {
      "city": "西安市",
      "address": "陕西省西安市碑林区咸宁西路28号"
    },
    "president": "王树国",
    "founding_date": "1896年",
    "motto": "精勤求学，敦笃励志，果毅力行，忠恕任事",
    "student_count": 31000,
    "area": "3.33平方公里",
    "library_volume": "约460万册",
    "academician_count": 35,
    "short_name": "西交大",
    "party_secretary": "卢建军",
    "anniversary_date": "4月8日",
    "predecessor": "南洋公学",
    "nearest_metro": "大雁塔站"
  },
  "同济大学": {
    "name": "同济大学",
    "type": "university",
    "phone": "021-65982200",
    "website": "https://www.tongji.edu.cn",
    "location": {
      "city": "上海市",
      "address": "上海市杨浦区四平路1239号"
    },
    "president": "陈杰",
    "founding_date": "1907年",
    "motto": "严谨，求实，团结，创新",
    "student_count": 36000,
    "area": "2.83平方公里",
    "library_volume": "约410万册",
    "academician_count": 25,
    "short_name": "同济",
    "party_secretary": "方守恩",
    "anniversary_date": "5月20日",
    "predecessor": "德文医学堂",
    "nearest_metro": "同济大学站"
  },
  "天津大学": {
    "name": "天津大学",
    "type": "university",
    "phone": "022-27404201",
    "website": "http://www.tju.edu.cn",
    "location": {
      "city": "天津市",
      "address": "天津市南开区卫津路92号"
    },
    "president": "金东寒",
    "founding_date": "1895年",
    "motto": "实事求是",
    "student_count": 32000,
    "area": "2.37平方公里",
    "library_volume": "约330万册",
    "academician_count": 21,
    "short_name": "天大",
    "party_secretary": "雷鸣",
    "anniversary_date": "10月2日",
    "predecessor": "北洋大学",
    "nearest_metro": "体育中心站"
  },
  "东南大学": {
    "name": "东南大学",
    "type": "university",
    "phone": "025-83794000",
    "website": "https://www.seu.edu.cn",
    "location": {
      "city": "南京市",
      "address": "江苏省南京市江宁区东南大学路2号"
    },
    "president": "张广军",
    "founding_date": "1902年",
    "motto": "止于至善",
    "student_count": 30000,
    "area": "3.52平方公里",
    "library_volume": "约430万册",
    "academician_count": 18,
    "short_name": "东大",
    "party_secretary": "金保昇",
    "anniversary_date": "6月15日",
    "predecessor": "三江师范学堂",
    "nearest_metro": "经天路站"
  },
  "四川大学": {
    "name": "四川大学",
    "type": "university",
    "phone": "028-85403116",
    "website": "https://www.scu.edu.cn",
    "location": {
      "city": "成都市",
      "address": "四川省成都市武侯区望江路29号"
    },
    "president": "李言荣",
    "founding_date": "1896年",
    "motto": "海纳百川，有容乃大",
    "student_count": 60000,
    "area": "5.35平方公里",
    "library_volume": "约650万册",
    "academician_count": 20,
    "short_name": "川大",
    "party_secretary": "王小锋",
    "anniversary_date": "5月3日",
    "predecessor": "四川中西学堂",
    "nearest_metro": "华西坝站"
  },
  "中山大学": {
    "name": "中山大学",
    "type": "university",
    "phone": "020-84110000",
    "website": "https://www.sysu.edu.cn",
    "location": {
      "city": "广州市",
      "address": "广东省广州市海珠区新港西路135号"
    },
    "president": "高松",
    "founding_date": "1924年",
    "motto": "博学、审问、慎思、明辨、笃行",
    "student_count": 56000,
    "area": "6.17平方公里",
    "library_volume": "约630万册",
    "academician_count": 21,
    "short_name": "中大",
    "party_secretary": "陈春声",
    "anniversary_date": "11月12日",
    "predecessor": "国立广东大学",
    "nearest_metro": "中大站"
  },
  "南开大学": {
    "name": "南开大学",
    "type": "university",
    "phone": "022-23508229",
    "website": "https://www.nankai.edu.cn",
    "location": {
      "city": "天津市",
      "address": "天津市南开区卫津路94号"
    },
    "president": "曹雪涛",
    "founding_date": "1919年",
    "motto": "允公允能，日新月异",
    "student_count": 28000,
    "area": "2.56平方公里",
    "library_volume": "约390万册",
    "academician_count": 19,
    "short_name": "南开",
    "party_secretary": "杨庆山",
    "anniversary_date": "10月17日",
    "predecessor": "私立南开学校",
    "nearest_metro": "天塔站"
  }
} 